{
"type": "FeatureCollection",
"name": "MetroRailStations",
"crs": { "type": "name", "properties": { "name": "urn:ogc:def:crs:OGC:1.3:CRS84" } },
"features": [
{ "type": "Feature", "properties": { "FID": 1, "NAME": "DADELAND SOUTH", "ADDRESS": "9150 DADELAND BLVD", "GRAGE_PARK": 1087, "SURF_PARK": 198, "ARTENROUTE": 1, "JOINT_DEV": 1, "LAT": 25.685, "LON": -80.31369, "POINT_X": 882187.93756000011, "POINT_Y": 491790.53122000006 }, "geometry": { "type": "Point", "coordinates": [ -80.313688367999987, 25.685002632000078 ] } },
{ "type": "Feature", "properties": { "FID": 2, "NAME": "DADELAND NORTH", "ADDRESS": "8300 S DIXIE HWY", "GRAGE_PARK": 1963, "SURF_PARK": 0, "ARTENROUTE": 0, "JOINT_DEV": 1, "LAT": 25.69194, "LON": -80.30511, "POINT_X": 884999.4998600001, "POINT_Y": 494327.06264000002 }, "geometry": { "type": "Point", "coordinates": [ -80.305111051999972, 25.691940936000037 ] } },
{ "type": "Feature", "properties": { "FID": 3, "NAME": "SOUTH MIAMI", "ADDRESS": "5949 SUNSET DR", "GRAGE_PARK": 1774, "SURF_PARK": 0, "ARTENROUTE": 1, "JOINT_DEV": 1, "LAT": 25.70504, "LON": -80.28908, "POINT_X": 890252.6248300001, "POINT_Y": 499116.96889000002 }, "geometry": { "type": "Point", "coordinates": [ -80.289081701999976, 25.705042396000067 ] } },
{ "type": "Feature", "properties": { "FID": 4, "NAME": "UNIVERSITY", "ADDRESS": "5400 PONCE DE LEON BLVD", "GRAGE_PARK": 0, "SURF_PARK": 295, "ARTENROUTE": 1, "JOINT_DEV": 0, "LAT": 25.71482, "LON": -80.27698, "POINT_X": 894218.68745000008, "POINT_Y": 502692.96863000002 }, "geometry": { "type": "Point", "coordinates": [ -80.276978035999946, 25.714821671000038 ] } },
{ "type": "Feature", "properties": { "FID": 5, "NAME": "DOUGLAS ROAD", "ADDRESS": "3060 SW 37TH CT", "GRAGE_PARK": 0, "SURF_PARK": 440, "ARTENROUTE": 1, "JOINT_DEV": 0, "LAT": 25.73275, "LON": -80.25487, "POINT_X": 901460.37493000005, "POINT_Y": 509252.28134000005 }, "geometry": { "type": "Point", "coordinates": [ -80.254872183999964, 25.732757159000073 ] } },
{ "type": "Feature", "properties": { "FID": 6, "NAME": "COCONUT GROVE", "ADDRESS": "2780 SW 27TH AVE", "GRAGE_PARK": 0, "SURF_PARK": 199, "ARTENROUTE": 1, "JOINT_DEV": 0, "LAT": 25.73981, "LON": -80.23885, "POINT_X": 906719.68752000004, "POINT_Y": 511848.93737000006 }, "geometry": { "type": "Point", "coordinates": [ -80.23885153599997, 25.739818562000039 ] } },
{ "type": "Feature", "properties": { "FID": 7, "NAME": "VIZCAYA", "ADDRESS": "3201 SW 1ST AVE", "GRAGE_PARK": 0, "SURF_PARK": 91, "ARTENROUTE": 1, "JOINT_DEV": 0, "LAT": 25.7497, "LON": -80.21177, "POINT_X": 915613.87493000005, "POINT_Y": 515493.28106000007 }, "geometry": { "type": "Point", "coordinates": [ -80.211767856999984, 25.749701208000033 ] } },
{ "type": "Feature", "properties": { "FID": 8, "NAME": "BRICKELL", "ADDRESS": "1001 SW 1ST AVE", "GRAGE_PARK": 0, "SURF_PARK": 0, "ARTENROUTE": 0, "JOINT_DEV": 0, "LAT": 25.76382, "LON": -80.19546, "POINT_X": 920948.68751000008, "POINT_Y": 520659.09379000001 }, "geometry": { "type": "Point", "coordinates": [ -80.195465479999939, 25.763824704000058 ] } },
{ "type": "Feature", "properties": { "FID": 9, "NAME": "CIVIC CENTER", "ADDRESS": "1501 NW 12TH AVE", "GRAGE_PARK": 0, "SURF_PARK": 0, "ARTENROUTE": 0, "JOINT_DEV": 0, "LAT": 25.78967, "LON": -80.21503, "POINT_X": 914451.68747000012, "POINT_Y": 530016.43735000002 }, "geometry": { "type": "Point", "coordinates": [ -80.215035664999959, 25.789676338000049 ] } },
{ "type": "Feature", "properties": { "FID": 10, "NAME": "SANTA CLARA", "ADDRESS": "2050 NW 12TH AVE", "GRAGE_PARK": 0, "SURF_PARK": 104, "ARTENROUTE": 1, "JOINT_DEV": 1, "LAT": 25.7958, "LON": -80.2152, "POINT_X": 914382.3124000001, "POINT_Y": 532243.87511000002 }, "geometry": { "type": "Point", "coordinates": [ -80.215206145999957, 25.795805575000031 ] } },
{ "type": "Feature", "properties": { "FID": 11, "NAME": "ALLAPATTAH", "ADDRESS": "3501 NW 12TH AVE", "GRAGE_PARK": 0, "SURF_PARK": 66, "ARTENROUTE": 1, "JOINT_DEV": 0, "LAT": 25.80869, "LON": -80.21546, "POINT_X": 914269.25006000011, "POINT_Y": 536929.8751200001 }, "geometry": { "type": "Point", "coordinates": [ -80.215464868999959, 25.80869948000003 ] } },
{ "type": "Feature", "properties": { "FID": 12, "NAME": "EARLINGTON HEIGHTS", "ADDRESS": "2100 NW 41ST ST", "GRAGE_PARK": 93, "SURF_PARK": 0, "ARTENROUTE": 1, "JOINT_DEV": 0, "LAT": 25.81245, "LON": -80.22995, "POINT_X": 909494.81252000004, "POINT_Y": 538265.87505000003 }, "geometry": { "type": "Point", "coordinates": [ -80.229952607999962, 25.812452657000051 ] } },
{ "type": "Feature", "properties": { "FID": 13, "NAME": "BROWNSVILLE", "ADDRESS": "5200 NW 27TH AVE", "GRAGE_PARK": 0, "SURF_PARK": 428, "ARTENROUTE": 1, "JOINT_DEV": 1, "LAT": 25.82207, "LON": -80.24072, "POINT_X": 905934.0626200001, "POINT_Y": 541740.93727 }, "geometry": { "type": "Point", "coordinates": [ -80.24071461799997, 25.822070163000035 ] } },
{ "type": "Feature", "properties": { "FID": 14, "NAME": "DR. MARTIN LUTHER KING, JR. PLAZA", "ADDRESS": "6205 NW 27TH AVE", "GRAGE_PARK": 100, "SURF_PARK": 0, "ARTENROUTE": 1, "JOINT_DEV": 1, "LAT": 25.83239, "LON": -80.24121, "POINT_X": 905753.43750000012, "POINT_Y": 545491.31221 }, "geometry": { "type": "Point", "coordinates": [ -80.24119789599996, 25.832391031000043 ] } },
{ "type": "Feature", "properties": { "FID": 15, "NAME": "NORTHSIDE", "ADDRESS": "3150 NW 79TH ST", "GRAGE_PARK": 0, "SURF_PARK": 294, "ARTENROUTE": 1, "JOINT_DEV": 1, "LAT": 25.8458, "LON": -80.24878, "POINT_X": 903230.93730000011, "POINT_Y": 550352.12496000004 }, "geometry": { "type": "Point", "coordinates": [ -80.248781940999947, 25.845803910000029 ] } },
{ "type": "Feature", "properties": { "FID": 16, "NAME": "TRI-RAIL", "ADDRESS": "1125 E 25TH ST", "GRAGE_PARK": 0, "SURF_PARK": 50, "ARTENROUTE": 0, "JOINT_DEV": 0, "LAT": 25.84544, "LON": -80.25979, "POINT_X": 899609.43752000004, "POINT_Y": 550199.93749000004 }, "geometry": { "type": "Point", "coordinates": [ -80.259795303999965, 25.845441748000042 ] } },
{ "type": "Feature", "properties": { "FID": 17, "NAME": "HIALEAH", "ADDRESS": "125 E 21ST ST", "GRAGE_PARK": 0, "SURF_PARK": 315, "ARTENROUTE": 0, "JOINT_DEV": 0, "LAT": 25.84118, "LON": -80.27904, "POINT_X": 893290.00002000004, "POINT_Y": 548616.06266000005 }, "geometry": { "type": "Point", "coordinates": [ -80.279035257999965, 25.841180829000052 ] } },
{ "type": "Feature", "properties": { "FID": 18, "NAME": "OKEECHOBEE", "ADDRESS": "2005 W OKEECHOBEE RD", "GRAGE_PARK": 939, "SURF_PARK": 142, "ARTENROUTE": 0, "JOINT_DEV": 1, "LAT": 25.83981, "LON": -80.30157, "POINT_X": 885880.56245000008, "POINT_Y": 548078.1249000001 }, "geometry": { "type": "Point", "coordinates": [ -80.301570805999972, 25.839810907000071 ] } },
{ "type": "Feature", "properties": { "FID": 19, "NAME": "CULMER", "ADDRESS": "701 NW 11TH ST", "GRAGE_PARK": 0, "SURF_PARK": 0, "ARTENROUTE": 1, "JOINT_DEV": 0, "LAT": 25.78456, "LON": -80.20754, "POINT_X": 916927.31263000006, "POINT_Y": 528171.68755000003 }, "geometry": { "type": "Point", "coordinates": [ -80.207546169999944, 25.784560296000052 ] } },
{ "type": "Feature", "properties": { "FID": 20, "NAME": "GOVERNMENT CENTER", "ADDRESS": "101 NW 1ST ST", "GRAGE_PARK": 0, "SURF_PARK": 0, "ARTENROUTE": 1, "JOINT_DEV": 0, "LAT": 25.77604, "LON": -80.1961, "POINT_X": 920712.50014000002, "POINT_Y": 525098.62505000003 }, "geometry": { "type": "Point", "coordinates": [ -80.19610079399996, 25.776042636000057 ] } },
{ "type": "Feature", "properties": { "FID": 21, "NAME": "HISTORIC OVERTOWN\/LYRIC THEATRE", "ADDRESS": "100 NW 6TH ST", "GRAGE_PARK": 0, "SURF_PARK": 35, "ARTENROUTE": 0, "JOINT_DEV": 0, "LAT": 25.78099, "LON": -80.19628, "POINT_X": 920640.99999000004, "POINT_Y": 526899.62483 }, "geometry": { "type": "Point", "coordinates": [ -80.196284662999972, 25.780998713000031 ] } },
{ "type": "Feature", "properties": { "FID": 22, "NAME": "PALMETTO", "ADDRESS": "7701 NW 79TH AVE", "GRAGE_PARK": 0, "SURF_PARK": 700, "ARTENROUTE": 1, "JOINT_DEV": 0, "LAT": 25.8434, "LON": -80.32374, "POINT_X": 878579.8750900001, "POINT_Y": 549346.49979000003 }, "geometry": { "type": "Point", "coordinates": [ -80.32374704199998, 25.843405533000066 ] } },
{ "type": "Feature", "properties": { "FID": 23, "NAME": "MIAMI INTERNATIONAL AIRPORT", "ADDRESS": "3800 NW 25TH ST", "GRAGE_PARK": 0, "SURF_PARK": 0, "ARTENROUTE": 0, "JOINT_DEV": 0, "LAT": 25.79742, "LON": -80.25937, "POINT_X": 899846.698, "POINT_Y": 532748.177 }, "geometry": { "type": "Point", "coordinates": [ -80.259371116999944, 25.797412030000032 ] } }
]
}
